{"url": "https://scontent.xx.fbcdn.net/hphotos-xfp1/v/t1.0-9/s720x720/12049565_10153157329355905_4152852565000981199_n.jpg?oh=a13d4288d0a32d422d611e26e8a4254b&oe=569E853A", "attribute": {"gender": {"confidence": 99.0625, "value": "Male"}, "age": {"range": 5, "value": 25}, "pose": {"yaw_angle": {"value": 3.066731}, "pitch_angle": {"value": -6.8e-05}, "roll_angle": {"value": 12.0216}}, "smiling": {"value": 98.1717}, "race": {"confidence": 99.2735, "value": "White"}}, "fbPageName": "CDLCBarcelona", "tag": "", "img_width": 720, "state": 0, "img_height": 479, "svid": "5|34278350904", "position": {"eye_left": {"y": 18.305489, "x": 50.334833}, "center": {"y": 23.057644, "x": 52.833333}, "width": 12.666667, "mouth_left": {"y": 26.708772, "x": 49.020833}, "height": 19.047619, "mouth_right": {"y": 28.503258, "x": 55.054667}, "nose": {"y": 24.528471, "x": 52.599}, "eye_right": {"y": 20.165689, "x": 56.143833}}, "face_id": "2ce47e0c65bf770b8be23bc72f1aa93b", "_id": "5643654dec4f440861252a40"}
{"url": "https://scontent.xx.fbcdn.net/hphotos-xtp1/v/t1.0-9/s720x720/12047195_10153157329380905_6928179545274490942_n.jpg?oh=e09d28d4e88f7a2213ccc98d070d3b47&oe=569F65B7", "attribute": {"gender": {"confidence": 99.9939, "value": "Male"}, "age": {"range": 5, "value": 20}, "pose": {"yaw_angle": {"value": -22.241849}, "pitch_angle": {"value": 0.001659}, "roll_angle": {"value": 7.12374}}, "smiling": {"value": 37.2767}, "race": {"confidence": 99.75070000000001, "value": "White"}}, "fbPageName": "CDLCBarcelona", "tag": "", "img_width": 720, "state": 0, "img_height": 479, "svid": "5|34278350904", "position": {"eye_left": {"y": 32.676692, "x": 32.783333}, "center": {"y": 34.837093, "x": 34.5}, "width": 7.333333, "mouth_left": {"y": 37.521053, "x": 32.678667}, "height": 11.027569, "mouth_right": {"y": 38.053885, "x": 35.717167}, "nose": {"y": 33.811529, "x": 34.058333}, "eye_right": {"y": 33.374436, "x": 36.496}}, "face_id": "9a47bca33df263076c89ec2142ae828b", "_id": "56436550ec4f440861252a41"}
{"url": "https://scontent.xx.fbcdn.net/hphotos-xtp1/v/t1.0-9/s720x720/12047195_10153157329380905_6928179545274490942_n.jpg?oh=e09d28d4e88f7a2213ccc98d070d3b47&oe=569F65B7", "attribute": {"gender": {"confidence": 98.5062, "value": "Male"}, "age": {"range": 5, "value": 18}, "pose": {"yaw_angle": {"value": -23.336101}, "pitch_angle": {"value": -3e-06}, "roll_angle": {"value": -19.9088}}, "smiling": {"value": 21.7135}, "race": {"confidence": 70.1145, "value": "White"}}, "fbPageName": "CDLCBarcelona", "tag": "", "img_width": 720, "state": 0, "img_height": 479, "svid": "5|34278350904", "position": {"eye_left": {"y": 34.891228, "x": 60.708}, "center": {"y": 36.215539, "x": 62.583333}, "width": 6.833333, "mouth_left": {"y": 39.444612, "x": 61.882167}, "height": 10.275689, "mouth_right": {"y": 38.506015, "x": 64.144}, "nose": {"y": 37.748371, "x": 61.851167}, "eye_right": {"y": 33.519799, "x": 63.226167}}, "face_id": "248432c5a0d0a336e3e29ad5dc56752d", "_id": "56436550ec4f440861252a42"}
{"url": "https://scontent.xx.fbcdn.net/hphotos-xtp1/v/t1.0-9/s720x720/12047195_10153157329380905_6928179545274490942_n.jpg?oh=e09d28d4e88f7a2213ccc98d070d3b47&oe=569F65B7", "attribute": {"gender": {"confidence": 99.9134, "value": "Male"}, "age": {"range": 8, "value": 26}, "pose": {"yaw_angle": {"value": 18.016171}, "pitch_angle": {"value": -0.000471}, "roll_angle": {"value": 2.65135}}, "smiling": {"value": 81.6475}, "race": {"confidence": 98.1626, "value": "White"}}, "fbPageName": "CDLCBarcelona", "tag": "", "img_width": 720, "state": 0, "img_height": 479, "svid": "5|34278350904", "position": {"eye_left": {"y": 32.410777, "x": 42.897}, "center": {"y": 34.33584, "x": 44.333333}, "width": 6.666667, "mouth_left": {"y": 37.124561, "x": 42.790167}, "height": 10.025063, "mouth_right": {"y": 37.450877, "x": 45.709}, "nose": {"y": 35.051378, "x": 44.968833}, "eye_right": {"y": 32.625313, "x": 45.977833}}, "face_id": "060be2d5a3db8a0645e7b94b63364012", "_id": "56436550ec4f440861252a43"}
{"url": "https://scontent.xx.fbcdn.net/hphotos-xtp1/v/t1.0-9/s720x720/12047195_10153157329380905_6928179545274490942_n.jpg?oh=e09d28d4e88f7a2213ccc98d070d3b47&oe=569F65B7", "attribute": {"gender": {"confidence": 99.5249, "value": "Male"}, "age": {"range": 10, "value": 40}, "pose": {"yaw_angle": {"value": -9.545884}, "pitch_angle": {"value": -4e-06}, "roll_angle": {"value": -22.454}}, "smiling": {"value": 95.5102}, "race": {"confidence": 99.9407, "value": "White"}}, "fbPageName": "CDLCBarcelona", "tag": "", "img_width": 720, "state": 0, "img_height": 479, "svid": "5|34278350904", "position": {"eye_left": {"y": 30.290977, "x": 52.8955}, "center": {"y": 31.704261, "x": 54.583333}, "width": 6.166667, "mouth_left": {"y": 34.139599, "x": 53.948167}, "height": 9.273183, "mouth_right": {"y": 32.677694, "x": 56.438167}, "nose": {"y": 31.751128, "x": 54.344333}, "eye_right": {"y": 28.7599, "x": 55.359167}}, "face_id": "48b5ab2e1f294ef0c44dcd82ecb4b238", "_id": "56436550ec4f440861252a44"}
{"url": "https://scontent.xx.fbcdn.net/hphotos-xpf1/v/t1.0-9/s720x720/12046805_10153157329385905_2674693227971809229_n.jpg?oh=b8ce9dfcf887ec80361029e0857e82ad&oe=5694F0B7", "attribute": {"gender": {"confidence": 95.765, "value": "Male"}, "age": {"range": 11, "value": 23}, "pose": {"yaw_angle": {"value": 0.020769}, "pitch_angle": {"value": -0.007147}, "roll_angle": {"value": -11.5414}}, "smiling": {"value": 93.2433}, "race": {"confidence": 99.889, "value": "White"}}, "fbPageName": "CDLCBarcelona", "tag": "", "img_width": 720, "state": 0, "img_height": 479, "svid": "5|34278350904", "position": {"eye_left": {"y": 21.501754, "x": 40.795833}, "center": {"y": 24.43609, "x": 44.25}, "width": 11.5, "mouth_left": {"y": 27.9401, "x": 42.0055}, "height": 17.293233, "mouth_right": {"y": 26.995739, "x": 47.465167}, "nose": {"y": 26.021303, "x": 44.560833}, "eye_right": {"y": 19.851579, "x": 46.169667}}, "face_id": "61abd2cb4b636e5b2dd7481bc919b20a", "_id": "56436552ec4f440861252a45"}
{"url": "https://scontent.xx.fbcdn.net/hphotos-xap1/v/t1.0-9/s720x720/12063824_10153157329500905_3738553710753251720_n.jpg?oh=87006bd262b6ac5a194eff7f16f71b97&oe=5688C5F5", "attribute": {"gender": {"confidence": 99.9678, "value": "Male"}, "age": {"range": 9, "value": 28}, "pose": {"yaw_angle": {"value": -0.33414}, "pitch_angle": {"value": -0.000704}, "roll_angle": {"value": -9.42523}}, "smiling": {"value": 98.6539}, "race": {"confidence": 99.2452, "value": "White"}}, "fbPageName": "CDLCBarcelona", "tag": "", "img_width": 720, "state": 0, "img_height": 479, "svid": "5|34278350904", "position": {"eye_left": {"y": 41.532581, "x": 38.161}, "center": {"y": 44.360902, "x": 41.666667}, "width": 12.333333, "mouth_left": {"y": 49.590476, "x": 38.965833}, "height": 18.546366, "mouth_right": {"y": 47.973183, "x": 45.209}, "nose": {"y": 45.434336, "x": 41.9315}, "eye_right": {"y": 40.062657, "x": 44.0495}}, "face_id": "d141c45ecfa84b0287001f25894a6806", "_id": "56436558ec4f440861252a46"}
{"url": "https://scontent.xx.fbcdn.net/hphotos-xap1/v/t1.0-9/s720x720/12063824_10153157329500905_3738553710753251720_n.jpg?oh=87006bd262b6ac5a194eff7f16f71b97&oe=5688C5F5", "attribute": {"gender": {"confidence": 99.9596, "value": "Male"}, "age": {"range": 5, "value": 15}, "pose": {"yaw_angle": {"value": -0.330997}, "pitch_angle": {"value": -0.000952}, "roll_angle": {"value": -15.27}}, "smiling": {"value": 98.4691}, "race": {"confidence": 50.6151, "value": "Black"}}, "fbPageName": "CDLCBarcelona", "tag": "", "img_width": 720, "state": 0, "img_height": 479, "svid": "5|34278350904", "position": {"eye_left": {"y": 29.861654, "x": 64.9025}, "center": {"y": 31.954887, "x": 68.083333}, "width": 10.5, "mouth_left": {"y": 36.324561, "x": 65.808333}, "height": 15.789474, "mouth_right": {"y": 34.360902, "x": 71.500833}, "nose": {"y": 32.748622, "x": 67.756667}, "eye_right": {"y": 27.651128, "x": 70.287}}, "face_id": "c3ba2ba15d9a58168048823d6a630bc3", "_id": "56436558ec4f440861252a47"}
{"url": "https://scontent.xx.fbcdn.net/hphotos-xap1/v/t1.0-9/s720x720/12063824_10153157329500905_3738553710753251720_n.jpg?oh=87006bd262b6ac5a194eff7f16f71b97&oe=5688C5F5", "attribute": {"gender": {"confidence": 99.9434, "value": "Male"}, "age": {"range": 8, "value": 31}, "pose": {"yaw_angle": {"value": 4.555749}, "pitch_angle": {"value": -3e-06}, "roll_angle": {"value": -8.71324}}, "smiling": {"value": 99.1133}, "race": {"confidence": 79.21820000000001, "value": "White"}}, "fbPageName": "CDLCBarcelona", "tag": "", "img_width": 720, "state": 0, "img_height": 479, "svid": "5|34278350904", "position": {"eye_left": {"y": 35.583709, "x": 53.5275}, "center": {"y": 38.345865, "x": 56.0}, "width": 10.333333, "mouth_left": {"y": 42.295489, "x": 53.565333}, "height": 15.538847, "mouth_right": {"y": 41.174687, "x": 58.774333}, "nose": {"y": 39.676942, "x": 56.234167}, "eye_right": {"y": 34.519048, "x": 58.147167}}, "face_id": "4deaf35d22790f93fc6a96b8fa3b09ff", "_id": "56436558ec4f440861252a48"}
{"url": "https://scontent.xx.fbcdn.net/hphotos-xpt1/v/t1.0-9/s720x720/11221704_10153157329615905_8550290752225192141_n.jpg?oh=e21fdb3b9df8a5470306344e52dd5b4e&oe=56995819", "attribute": {"gender": {"confidence": 99.6078, "value": "Male"}, "age": {"range": 7, "value": 33}, "pose": {"yaw_angle": {"value": 0.049982}, "pitch_angle": {"value": 1.6e-05}, "roll_angle": {"value": -0.883994}}, "smiling": {"value": 79.1628}, "race": {"confidence": 96.6266, "value": "White"}}, "fbPageName": "CDLCBarcelona", "tag": "", "img_width": 720, "state": 0, "img_height": 479, "svid": "5|34278350904", "position": {"eye_left": {"y": 30.06817, "x": 40.865333}, "center": {"y": 33.458647, "x": 43.916667}, "width": 11.5, "mouth_left": {"y": 38.886466, "x": 41.5125}, "height": 17.293233, "mouth_right": {"y": 38.598997, "x": 46.668333}, "nose": {"y": 34.176692, "x": 44.179333}, "eye_right": {"y": 29.940351, "x": 46.374167}}, "face_id": "d55de544897e8deaefdf9681594bc551", "_id": "5643655bec4f440861252a49"}
{"url": "https://scontent.xx.fbcdn.net/hphotos-xpt1/v/t1.0-9/s720x720/11221704_10153157329615905_8550290752225192141_n.jpg?oh=e21fdb3b9df8a5470306344e52dd5b4e&oe=56995819", "attribute": {"gender": {"confidence": 99.6955, "value": "Male"}, "age": {"range": 8, "value": 28}, "pose": {"yaw_angle": {"value": -0.147309}, "pitch_angle": {"value": -0.000231}, "roll_angle": {"value": -14.6406}}, "smiling": {"value": 93.4255}, "race": {"confidence": 99.8169, "value": "White"}}, "fbPageName": "CDLCBarcelona", "tag": "", "img_width": 720, "state": 0, "img_height": 479, "svid": "5|34278350904", "position": {"eye_left": {"y": 33.300251, "x": 53.9475}, "center": {"y": 35.463659, "x": 56.583333}, "width": 9.833333, "mouth_left": {"y": 39.915789, "x": 55.2235}, "height": 14.786967, "mouth_right": {"y": 38.088722, "x": 59.344833}, "nose": {"y": 36.268922, "x": 56.210833}, "eye_right": {"y": 31.610526, "x": 58.248833}}, "face_id": "7231a49bf09b68cd87819442db407e8d", "_id": "5643655bec4f440861252a4a"}
{"url": "https://scontent.xx.fbcdn.net/hphotos-xap1/v/t1.0-9/s720x720/12079499_10153157329655905_7364132732562370299_n.jpg?oh=073f851b075387b7f78ed8a2e115b69c&oe=569434D1", "attribute": {"gender": {"confidence": 82.0083, "value": "Female"}, "age": {"range": 7, "value": 34}, "pose": {"yaw_angle": {"value": -22.16192}, "pitch_angle": {"value": 1.8e-05}, "roll_angle": {"value": -1.99138}}, "smiling": {"value": 59.1609}, "race": {"confidence": 83.45909999999999, "value": "Asian"}}, "fbPageName": "CDLCBarcelona", "tag": "", "img_width": 720, "state": 0, "img_height": 479, "svid": "5|34278350904", "position": {"eye_left": {"y": 31.814536, "x": 46.1635}, "center": {"y": 35.087719, "x": 48.833333}, "width": 14.333333, "mouth_left": {"y": 41.033083, "x": 45.646}, "height": 21.553885, "mouth_right": {"y": 41.545113, "x": 52.3705}, "nose": {"y": 34.623308, "x": 46.470667}, "eye_right": {"y": 31.482957, "x": 52.505167}}, "face_id": "6aa26d02b796f306407533d777a3d47a", "_id": "5643655eec4f440861252a4b"}
{"url": "https://scontent.xx.fbcdn.net/hphotos-xap1/v/t1.0-9/s720x720/12079499_10153157329655905_7364132732562370299_n.jpg?oh=073f851b075387b7f78ed8a2e115b69c&oe=569434D1", "attribute": {"gender": {"confidence": 96.0279, "value": "Male"}, "age": {"range": 5, "value": 6}, "pose": {"yaw_angle": {"value": -0.125}, "pitch_angle": {"value": -3.117947}, "roll_angle": {"value": 5.40888}}, "smiling": {"value": 55.0452}, "race": {"confidence": 99.97070000000001, "value": "White"}}, "fbPageName": "CDLCBarcelona", "tag": "", "img_width": 720, "state": 0, "img_height": 479, "svid": "5|34278350904", "position": {"eye_left": {"y": 11.449799, "x": 40.39}, "center": {"y": 13.157895, "x": 41.75}, "width": 4.5, "mouth_left": {"y": 14.522632, "x": 40.619333}, "height": 6.766917, "mouth_right": {"y": 14.721128, "x": 42.903667}, "nose": {"y": 14.386942, "x": 41.460167}, "eye_right": {"y": 11.814085, "x": 42.9485}}, "face_id": "47267a242b1f7821c12e0baae3c2c94f", "_id": "5643655eec4f440861252a4c"}
{"url": "https://scontent.xx.fbcdn.net/hphotos-xpt1/v/t1.0-9/s720x720/12065678_10153157329670905_6038057459566012781_n.jpg?oh=961edc6df78085913a62050c2eaec2e7&oe=568E07C7", "attribute": {"gender": {"confidence": 99.9874, "value": "Female"}, "age": {"range": 6, "value": 19}, "pose": {"yaw_angle": {"value": 0.267678}, "pitch_angle": {"value": -3e-06}, "roll_angle": {"value": 23.0695}}, "smiling": {"value": 79.6736}, "race": {"confidence": 89.7324, "value": "White"}}, "fbPageName": "CDLCBarcelona", "tag": "", "img_width": 720, "state": 0, "img_height": 479, "svid": "5|34278350904", "position": {"eye_left": {"y": 32.180702, "x": 54.226}, "center": {"y": 36.090226, "x": 56.0}, "width": 9.0, "mouth_left": {"y": 38.879449, "x": 52.810667}, "height": 13.533835, "mouth_right": {"y": 40.728571, "x": 57.043667}, "nose": {"y": 38.810276, "x": 55.2725}, "eye_right": {"y": 35.041855, "x": 58.693333}}, "face_id": "6d38ee6bf759e6157c48668b78a3d0f0", "_id": "56436560ec4f440861252a4d"}
{"url": "https://scontent.xx.fbcdn.net/hphotos-xla1/v/t1.0-9/s720x720/12079069_10153157329725905_5977519041660065567_n.jpg?oh=e93276e1aa57889075b5d55f7c054b09&oe=56A34EFB", "attribute": {"gender": {"confidence": 99.9419, "value": "Female"}, "age": {"range": 5, "value": 23}, "pose": {"yaw_angle": {"value": -16.621329}, "pitch_angle": {"value": -4.7e-05}, "roll_angle": {"value": 15.3193}}, "smiling": {"value": 94.8366}, "race": {"confidence": 87.5744, "value": "White"}}, "fbPageName": "CDLCBarcelona", "tag": "", "img_width": 720, "state": 0, "img_height": 479, "svid": "5|34278350904", "position": {"eye_left": {"y": 29.771679, "x": 44.0675}, "center": {"y": 32.581454, "x": 45.5}, "width": 7.0, "mouth_left": {"y": 34.418296, "x": 43.268}, "height": 10.526316, "mouth_right": {"y": 35.584461, "x": 46.536333}, "nose": {"y": 32.631328, "x": 44.4525}, "eye_right": {"y": 31.134336, "x": 47.3755}}, "face_id": "f19876d1ae8b929e4df144191c2246a7", "_id": "56436566ec4f440861252a4e"}
{"url": "https://scontent.xx.fbcdn.net/hphotos-xla1/v/t1.0-9/s720x720/12079069_10153157329725905_5977519041660065567_n.jpg?oh=e93276e1aa57889075b5d55f7c054b09&oe=56A34EFB", "attribute": {"gender": {"confidence": 99.9983, "value": "Female"}, "age": {"range": 10, "value": 37}, "pose": {"yaw_angle": {"value": -8.537419}, "pitch_angle": {"value": 1.7e-05}, "roll_angle": {"value": 7.16504}}, "smiling": {"value": 75.8422}, "race": {"confidence": 99.9819, "value": "White"}}, "fbPageName": "CDLCBarcelona", "tag": "", "img_width": 720, "state": 0, "img_height": 479, "svid": "5|34278350904", "position": {"eye_left": {"y": 31.545363, "x": 51.070167}, "center": {"y": 34.210526, "x": 52.583333}, "width": 6.833333, "mouth_left": {"y": 36.316792, "x": 50.99}, "height": 10.275689, "mouth_right": {"y": 37.201003, "x": 53.9695}, "nose": {"y": 35.409023, "x": 51.719667}, "eye_right": {"y": 32.189223, "x": 54.476167}}, "face_id": "1820e53e0bf9561d7279bfe4855c8364", "_id": "56436566ec4f440861252a4f"}
{"url": "https://scontent.xx.fbcdn.net/hphotos-xla1/v/t1.0-9/s720x720/12079069_10153157329725905_5977519041660065567_n.jpg?oh=e93276e1aa57889075b5d55f7c054b09&oe=56A34EFB", "attribute": {"gender": {"confidence": 92.3379, "value": "Male"}, "age": {"range": 5, "value": 8}, "pose": {"yaw_angle": {"value": -41.110754}, "pitch_angle": {"value": -0.000506}, "roll_angle": {"value": -7.40286}}, "smiling": {"value": 6.34294}, "race": {"confidence": 98.4723, "value": "White"}}, "fbPageName": "CDLCBarcelona", "tag": "", "img_width": 720, "state": 0, "img_height": 479, "svid": "5|34278350904", "position": {"eye_left": {"y": 26.741855, "x": 33.732}, "center": {"y": 28.070175, "x": 35.0}, "width": 4.0, "mouth_left": {"y": 30.322055, "x": 34.202833}, "height": 6.015038, "mouth_right": {"y": 30.044862, "x": 35.520667}, "nose": {"y": 28.4401, "x": 34.233833}, "eye_right": {"y": 26.378446, "x": 35.592}}, "face_id": "7234410cb1ecf2a22e92377c39da0331", "_id": "56436566ec4f440861252a50"}
{"url": "https://scontent.xx.fbcdn.net/hphotos-xpt1/v/t1.0-9/s720x720/12079235_10153157329855905_2317446445487247560_n.jpg?oh=9c5e47680bd36bc7103cfd1bc085486c&oe=569C2904", "attribute": {"gender": {"confidence": 99.9999, "value": "Female"}, "age": {"range": 5, "value": 24}, "pose": {"yaw_angle": {"value": 6.320297}, "pitch_angle": {"value": 1.1e-05}, "roll_angle": {"value": 33.223}}, "smiling": {"value": 96.5859}, "race": {"confidence": 49.4074, "value": "White"}}, "fbPageName": "CDLCBarcelona", "tag": "", "img_width": 720, "state": 0, "img_height": 479, "svid": "5|34278350904", "position": {"eye_left": {"y": 33.789223, "x": 67.198333}, "center": {"y": 37.844612, "x": 67.833333}, "width": 9.333333, "mouth_left": {"y": 38.99599, "x": 64.240667}, "height": 14.035088, "mouth_right": {"y": 42.318296, "x": 68.203}, "nose": {"y": 39.424561, "x": 67.627667}, "eye_right": {"y": 37.409524, "x": 70.874167}}, "face_id": "2438d6101433af3cd2f569e596fbbb30", "_id": "56436569ec4f440861252a51"}
{"url": "https://scontent.xx.fbcdn.net/hphotos-xpt1/v/t1.0-9/s720x720/12079235_10153157329855905_2317446445487247560_n.jpg?oh=9c5e47680bd36bc7103cfd1bc085486c&oe=569C2904", "attribute": {"gender": {"confidence": 99.7842, "value": "Male"}, "age": {"range": 5, "value": 15}, "pose": {"yaw_angle": {"value": 2.66352}, "pitch_angle": {"value": -0.000105}, "roll_angle": {"value": -3.312}}, "smiling": {"value": 99.262}, "race": {"confidence": 99.3494, "value": "White"}}, "fbPageName": "CDLCBarcelona", "tag": "", "img_width": 720, "state": 0, "img_height": 479, "svid": "5|34278350904", "position": {"eye_left": {"y": 32.043358, "x": 36.215833}, "center": {"y": 34.711779, "x": 38.416667}, "width": 9.166667, "mouth_left": {"y": 38.240351, "x": 36.265}, "height": 13.784461, "mouth_right": {"y": 37.533333, "x": 41.009833}, "nose": {"y": 35.705013, "x": 38.944167}, "eye_right": {"y": 31.663158, "x": 40.584833}}, "face_id": "503bc3e4d139d0feedb901f1190e2eec", "_id": "56436569ec4f440861252a52"}
{"url": "https://scontent.xx.fbcdn.net/hphotos-xpt1/v/t1.0-9/s720x720/12079235_10153157329855905_2317446445487247560_n.jpg?oh=9c5e47680bd36bc7103cfd1bc085486c&oe=569C2904", "attribute": {"gender": {"confidence": 99.9964, "value": "Female"}, "age": {"range": 5, "value": 12}, "pose": {"yaw_angle": {"value": 1.839479}, "pitch_angle": {"value": 8e-06}, "roll_angle": {"value": 0.169898}}, "smiling": {"value": 18.9894}, "race": {"confidence": 58.477900000000005, "value": "White"}}, "fbPageName": "CDLCBarcelona", "tag": "", "img_width": 720, "state": 0, "img_height": 479, "svid": "5|34278350904", "position": {"eye_left": {"y": 30.9401, "x": 44.653333}, "center": {"y": 33.082707, "x": 46.833333}, "width": 8.333333, "mouth_left": {"y": 37.545865, "x": 45.355667}, "height": 12.531328, "mouth_right": {"y": 36.799248, "x": 48.611}, "nose": {"y": 33.487719, "x": 47.075667}, "eye_right": {"y": 30.957895, "x": 48.644333}}, "face_id": "1028948c5370827c886d0bbfb1d157c0", "_id": "56436569ec4f440861252a53"}
{"url": "https://scontent.xx.fbcdn.net/hphotos-xtl1/v/t1.0-9/s720x720/12074542_10153157329945905_8491207029215856651_n.jpg?oh=7e429e82fff3eaa24208cce674cc3fec&oe=56CED118", "attribute": {"gender": {"confidence": 99.9999, "value": "Male"}, "age": {"range": 8, "value": 20}, "pose": {"yaw_angle": {"value": -0.026781}, "pitch_angle": {"value": -4e-06}, "roll_angle": {"value": -1.52259}}, "smiling": {"value": 74.5554}, "race": {"confidence": 77.73689999999999, "value": "White"}}, "fbPageName": "CDLCBarcelona", "tag": "", "img_width": 720, "state": 0, "img_height": 479, "svid": "5|34278350904", "position": {"eye_left": {"y": 23.414662, "x": 55.205}, "center": {"y": 25.689223, "x": 57.083333}, "width": 7.5, "mouth_left": {"y": 28.730326, "x": 55.129167}, "height": 11.278195, "mouth_right": {"y": 28.914286, "x": 58.475}, "nose": {"y": 26.457895, "x": 56.898833}, "eye_right": {"y": 23.270827, "x": 58.8035}}, "face_id": "eba1bf20988d4b754c0ff0c44b1b5ff8", "_id": "5643656dec4f440861252a54"}
{"url": "https://scontent.xx.fbcdn.net/hphotos-xtl1/v/t1.0-9/s720x720/12074542_10153157329945905_8491207029215856651_n.jpg?oh=7e429e82fff3eaa24208cce674cc3fec&oe=56CED118", "attribute": {"gender": {"confidence": 99.9821, "value": "Female"}, "age": {"range": 9, "value": 29}, "pose": {"yaw_angle": {"value": -0.906411}, "pitch_angle": {"value": -0.004722}, "roll_angle": {"value": -11.0652}}, "smiling": {"value": 94.0759}, "race": {"confidence": 89.2654, "value": "White"}}, "fbPageName": "CDLCBarcelona", "tag": "", "img_width": 720, "state": 0, "img_height": 479, "svid": "5|34278350904", "position": {"eye_left": {"y": 33.114035, "x": 64.3835}, "center": {"y": 34.962406, "x": 66.583333}, "width": 7.5, "mouth_left": {"y": 37.178446, "x": 64.618833}, "height": 11.278195, "mouth_right": {"y": 36.693734, "x": 68.3465}, "nose": {"y": 35.677193, "x": 66.522833}, "eye_right": {"y": 31.983459, "x": 68.228}}, "face_id": "b83f320916b3c01c95cd17920a971117", "_id": "5643656dec4f440861252a55"}
{"url": "https://scontent.xx.fbcdn.net/hphotos-xtl1/v/t1.0-9/s720x720/12074542_10153157329945905_8491207029215856651_n.jpg?oh=7e429e82fff3eaa24208cce674cc3fec&oe=56CED118", "attribute": {"gender": {"confidence": 99.8655, "value": "Male"}, "age": {"range": 5, "value": 17}, "pose": {"yaw_angle": {"value": 1.890103}, "pitch_angle": {"value": -0.001758}, "roll_angle": {"value": -13.3437}}, "smiling": {"value": 12.0343}, "race": {"confidence": 96.5171, "value": "White"}}, "fbPageName": "CDLCBarcelona", "tag": "", "img_width": 720, "state": 0, "img_height": 479, "svid": "5|34278350904", "position": {"eye_left": {"y": 33.245113, "x": 24.894833}, "center": {"y": 34.586466, "x": 27.0}, "width": 7.0, "mouth_left": {"y": 37.670927, "x": 26.299833}, "height": 10.526316, "mouth_right": {"y": 36.749875, "x": 28.776}, "nose": {"y": 35.015038, "x": 27.346}, "eye_right": {"y": 32.141353, "x": 27.989333}}, "face_id": "749a35ccb0ed44ad523da8bd95027b18", "_id": "5643656dec4f440861252a56"}
{"url": "https://scontent.xx.fbcdn.net/hphotos-xtl1/v/t1.0-9/s720x720/12074542_10153157329945905_8491207029215856651_n.jpg?oh=7e429e82fff3eaa24208cce674cc3fec&oe=56CED118", "attribute": {"gender": {"confidence": 99.5223, "value": "Female"}, "age": {"range": 5, "value": 23}, "pose": {"yaw_angle": {"value": -1.010608}, "pitch_angle": {"value": 2e-06}, "roll_angle": {"value": 17.4763}}, "smiling": {"value": 54.0673}, "race": {"confidence": 80.3899, "value": "White"}}, "fbPageName": "CDLCBarcelona", "tag": "", "img_width": 720, "state": 0, "img_height": 479, "svid": "5|34278350904", "position": {"eye_left": {"y": 45.400501, "x": 46.160167}, "center": {"y": 48.245614, "x": 47.416667}, "width": 6.5, "mouth_left": {"y": 51.121805, "x": 45.7035}, "height": 9.774436, "mouth_right": {"y": 52.386466, "x": 48.505}, "nose": {"y": 49.188221, "x": 46.825333}, "eye_right": {"y": 47.003759, "x": 49.5465}}, "face_id": "0c9e20122b5c27f0fd1ab3d4e2be5667", "_id": "5643656dec4f440861252a57"}
{"url": "https://scontent.xx.fbcdn.net/hphotos-xtl1/v/t1.0-9/s720x720/12074542_10153157329945905_8491207029215856651_n.jpg?oh=7e429e82fff3eaa24208cce674cc3fec&oe=56CED118", "attribute": {"gender": {"confidence": 99.9996, "value": "Female"}, "age": {"range": 7, "value": 26}, "pose": {"yaw_angle": {"value": -19.474034}, "pitch_angle": {"value": 4e-06}, "roll_angle": {"value": 3.60828}}, "smiling": {"value": 86.7037}, "race": {"confidence": 95.8613, "value": "White"}}, "fbPageName": "CDLCBarcelona", "tag": "", "img_width": 720, "state": 0, "img_height": 479, "svid": "5|34278350904", "position": {"eye_left": {"y": 34.925564, "x": 32.161667}, "center": {"y": 36.967419, "x": 33.75}, "width": 5.833333, "mouth_left": {"y": 39.303759, "x": 32.632167}, "height": 8.77193, "mouth_right": {"y": 39.256892, "x": 34.933833}, "nose": {"y": 37.713283, "x": 32.9055}, "eye_right": {"y": 35.190226, "x": 34.952667}}, "face_id": "b3ec0a80111b5c270c0b04b62b244f7f", "_id": "5643656dec4f440861252a58"}
{"url": "https://scontent.xx.fbcdn.net/hphotos-xat1/v/t1.0-9/s720x720/12046595_10153157329960905_2577613538998713712_n.jpg?oh=97c5458d5e713f957cd78d3f8cd039d7&oe=5699DDA2", "attribute": {"gender": {"confidence": 99.9987, "value": "Male"}, "age": {"range": 5, "value": 27}, "pose": {"yaw_angle": {"value": 0.000669}, "pitch_angle": {"value": -5e-06}, "roll_angle": {"value": 14.114}}, "smiling": {"value": 29.9806}, "race": {"confidence": 97.1171, "value": "White"}}, "fbPageName": "CDLCBarcelona", "tag": "", "img_width": 720, "state": 0, "img_height": 479, "svid": "5|34278350904", "position": {"eye_left": {"y": 28.074436, "x": 42.185}, "center": {"y": 31.829574, "x": 44.166667}, "width": 9.666667, "mouth_left": {"y": 35.448371, "x": 41.768167}, "height": 14.536341, "mouth_right": {"y": 36.764662, "x": 45.403667}, "nose": {"y": 33.13183, "x": 43.908167}, "eye_right": {"y": 29.76817, "x": 46.6645}}, "face_id": "57a7507dad4d4b74f2dba72bd6cf33da", "_id": "5643656fec4f440861252a59"}
{"url": "https://scontent.xx.fbcdn.net/hphotos-xat1/v/t1.0-9/s720x720/12046595_10153157329960905_2577613538998713712_n.jpg?oh=97c5458d5e713f957cd78d3f8cd039d7&oe=5699DDA2", "attribute": {"gender": {"confidence": 99.7441, "value": "Female"}, "age": {"range": 6, "value": 23}, "pose": {"yaw_angle": {"value": -22.775994}, "pitch_angle": {"value": 1.2e-05}, "roll_angle": {"value": -19.7249}}, "smiling": {"value": 84.8658}, "race": {"confidence": 98.8587, "value": "White"}}, "fbPageName": "CDLCBarcelona", "tag": "", "img_width": 720, "state": 0, "img_height": 479, "svid": "5|34278350904", "position": {"eye_left": {"y": 44.286967, "x": 50.0515}, "center": {"y": 45.864662, "x": 52.833333}, "width": 8.333333, "mouth_left": {"y": 49.218797, "x": 51.839167}, "height": 12.531328, "mouth_right": {"y": 48.103509, "x": 55.152333}, "nose": {"y": 47.407268, "x": 52.045167}, "eye_right": {"y": 42.131579, "x": 54.049167}}, "face_id": "4c85c74bc36266c499e6a11bfd49977d", "_id": "5643656fec4f440861252a5a"}
{"url": "https://scontent.xx.fbcdn.net/hphotos-xat1/v/t1.0-9/s720x720/12046595_10153157329960905_2577613538998713712_n.jpg?oh=97c5458d5e713f957cd78d3f8cd039d7&oe=5699DDA2", "attribute": {"gender": {"confidence": 99.9932, "value": "Male"}, "age": {"range": 7, "value": 28}, "pose": {"yaw_angle": {"value": -33.21883}, "pitch_angle": {"value": -0.000582}, "roll_angle": {"value": -20.3574}}, "smiling": {"value": 19.5595}, "race": {"confidence": 98.1391, "value": "White"}}, "fbPageName": "CDLCBarcelona", "tag": "", "img_width": 720, "state": 0, "img_height": 479, "svid": "5|34278350904", "position": {"eye_left": {"y": 39.356892, "x": 18.0925}, "center": {"y": 40.977444, "x": 20.583333}, "width": 7.833333, "mouth_left": {"y": 44.065414, "x": 19.682}, "height": 11.779449, "mouth_right": {"y": 43.161654, "x": 21.779333}, "nose": {"y": 41.970927, "x": 19.273167}, "eye_right": {"y": 37.767419, "x": 20.941167}}, "face_id": "d4f882302c8040459b77defdddefa931", "_id": "5643656fec4f440861252a5b"}
{"url": "https://scontent.xx.fbcdn.net/hphotos-xap1/v/t1.0-9/s720x720/12088335_10153157330015905_4820737027026480010_n.jpg?oh=39ab4fc3203d05e624f0c21bdd670b55&oe=568E8629", "attribute": {"gender": {"confidence": 99.9975, "value": "Female"}, "age": {"range": 5, "value": 33}, "pose": {"yaw_angle": {"value": 31.573805}, "pitch_angle": {"value": 1.9e-05}, "roll_angle": {"value": 12.5957}}, "smiling": {"value": 33.1157}, "race": {"confidence": 92.303, "value": "White"}}, "fbPageName": "CDLCBarcelona", "tag": "", "img_width": 720, "state": 0, "img_height": 479, "svid": "5|34278350904", "position": {"eye_left": {"y": 29.515038, "x": 49.8485}, "center": {"y": 32.581454, "x": 51.5}, "width": 10.0, "mouth_left": {"y": 37.565414, "x": 49.899667}, "height": 15.037594, "mouth_right": {"y": 38.710276, "x": 53.3395}, "nose": {"y": 33.300752, "x": 53.531167}, "eye_right": {"y": 30.856391, "x": 53.8405}}, "face_id": "02a37392ff57fed4c4c00058c957d2bc", "_id": "56436573ec4f440861252a5c"}
{"url": "https://scontent.xx.fbcdn.net/hphotos-xap1/v/t1.0-9/s720x720/12063560_10153157330050905_6123647406632626440_n.jpg?oh=c33ba152dc708a57a500ed37bb95e98e&oe=56A462B7", "attribute": {"gender": {"confidence": 99.044, "value": "Male"}, "age": {"range": 10, "value": 49}, "pose": {"yaw_angle": {"value": -8.406807}, "pitch_angle": {"value": 5e-06}, "roll_angle": {"value": 2.81371}}, "smiling": {"value": 57.8823}, "race": {"confidence": 95.08879999999999, "value": "White"}}, "fbPageName": "CDLCBarcelona", "tag": "", "img_width": 720, "state": 0, "img_height": 479, "svid": "5|34278350904", "position": {"eye_left": {"y": 28.564912, "x": 58.0245}, "center": {"y": 31.829574, "x": 59.833333}, "width": 9.333333, "mouth_left": {"y": 35.760401, "x": 57.924667}, "height": 14.035088, "mouth_right": {"y": 35.75213, "x": 61.754}, "nose": {"y": 32.740602, "x": 59.198167}, "eye_right": {"y": 28.86416, "x": 62.0735}}, "face_id": "42904b0ca2b58f8e0e8c2354614bbfc6", "_id": "56436576ec4f440861252a5d"}
{"url": "https://scontent.xx.fbcdn.net/hphotos-xap1/v/t1.0-9/s720x720/12063560_10153157330050905_6123647406632626440_n.jpg?oh=c33ba152dc708a57a500ed37bb95e98e&oe=56A462B7", "attribute": {"gender": {"confidence": 99.6426, "value": "Male"}, "age": {"range": 9, "value": 31}, "pose": {"yaw_angle": {"value": -17.334983}, "pitch_angle": {"value": -0.000209}, "roll_angle": {"value": 6.88192}}, "smiling": {"value": 53.2374}, "race": {"confidence": 98.9153, "value": "White"}}, "fbPageName": "CDLCBarcelona", "tag": "", "img_width": 720, "state": 0, "img_height": 479, "svid": "5|34278350904", "position": {"eye_left": {"y": 30.633083, "x": 47.105833}, "center": {"y": 33.333333, "x": 49.166667}, "width": 8.0, "mouth_left": {"y": 36.876942, "x": 47.103833}, "height": 12.030075, "mouth_right": {"y": 37.816291, "x": 50.5355}, "nose": {"y": 34.036842, "x": 48.45}, "eye_right": {"y": 31.385464, "x": 51.251333}}, "face_id": "362487f9ceef658d3bacc26cb38efee3", "_id": "56436576ec4f440861252a5e"}
{"url": "https://scontent.xx.fbcdn.net/hphotos-xat1/v/t1.0-9/s720x720/12144863_10153161864220905_3874742601395874401_n.jpg?oh=ad2c5ab993e73078aca8c2baa9f15d8a&oe=56A659E4", "attribute": {"gender": {"confidence": 99.7521, "value": "Female"}, "age": {"range": 5, "value": 8}, "pose": {"yaw_angle": {"value": -23.941726}, "pitch_angle": {"value": 29.741484}, "roll_angle": {"value": -1.01195}}, "smiling": {"value": 75.188}, "race": {"confidence": 98.8109, "value": "White"}}, "fbPageName": "CDLCBarcelona", "tag": "", "img_width": 471, "state": 0, "img_height": 720, "svid": "5|34278350904", "position": {"eye_left": {"y": 12.4305, "x": 49.296173}, "center": {"y": 14.583333, "x": 51.913265}, "width": 11.989796, "mouth_left": {"y": 16.3061, "x": 48.760459}, "height": 7.833333, "mouth_right": {"y": 16.143717, "x": 54.72602}, "nose": {"y": 15.35915, "x": 51.285969}, "eye_right": {"y": 12.366533, "x": 54.839031}}, "face_id": "f8e02c3acc182cd88a734a27522fbefa", "_id": "56436584ec4f440861252a5f"}
{"url": "https://scontent.xx.fbcdn.net/hphotos-xlf1/v/t1.0-9/s720x720/12042665_10153157327310905_969169713393458146_n.jpg?oh=bb34b4a2e28f78f0a1c8e0cdadbdc711&oe=56D31B1A", "attribute": {"gender": {"confidence": 99.8327, "value": "Male"}, "age": {"range": 5, "value": 24}, "pose": {"yaw_angle": {"value": -22.571595}, "pitch_angle": {"value": -0.0}, "roll_angle": {"value": -19.1606}}, "smiling": {"value": 26.4188}, "race": {"confidence": 99.67869999999999, "value": "White"}}, "fbPageName": "CDLCBarcelona", "tag": "", "img_width": 720, "state": 0, "img_height": 479, "svid": "5|34278350904", "position": {"eye_left": {"y": 36.602005, "x": 62.039}, "center": {"y": 37.593985, "x": 64.0}, "width": 6.666667, "mouth_left": {"y": 40.956391, "x": 63.110667}, "height": 10.025063, "mouth_right": {"y": 39.806516, "x": 65.216667}, "nose": {"y": 38.56416, "x": 63.246}, "eye_right": {"y": 35.098496, "x": 64.9165}}, "face_id": "299f43b478057c4abc73b088386e9ba0", "_id": "5643658dec4f440861252a60"}
{"url": "https://scontent.xx.fbcdn.net/hphotos-xlf1/v/t1.0-9/s720x720/12042665_10153157327310905_969169713393458146_n.jpg?oh=bb34b4a2e28f78f0a1c8e0cdadbdc711&oe=56D31B1A", "attribute": {"gender": {"confidence": 99.9982, "value": "Female"}, "age": {"range": 8, "value": 21}, "pose": {"yaw_angle": {"value": 27.405327}, "pitch_angle": {"value": 2.2e-05}, "roll_angle": {"value": 6.44288}}, "smiling": {"value": 59.8612}, "race": {"confidence": 91.7568, "value": "White"}}, "fbPageName": "CDLCBarcelona", "tag": "", "img_width": 720, "state": 0, "img_height": 479, "svid": "5|34278350904", "position": {"eye_left": {"y": 36.022306, "x": 30.117333}, "center": {"y": 38.095238, "x": 31.5}, "width": 6.333333, "mouth_left": {"y": 40.329073, "x": 30.115833}, "height": 9.52381, "mouth_right": {"y": 40.806767, "x": 32.827167}, "nose": {"y": 38.698496, "x": 32.4915}, "eye_right": {"y": 36.552381, "x": 33.238833}}, "face_id": "e73cb3cc75de58ad86a628cdd0fccb19", "_id": "5643658dec4f440861252a61"}
{"url": "https://scontent.xx.fbcdn.net/hphotos-xlf1/v/t1.0-9/s720x720/12042665_10153157327310905_969169713393458146_n.jpg?oh=bb34b4a2e28f78f0a1c8e0cdadbdc711&oe=56D31B1A", "attribute": {"gender": {"confidence": 55.9799, "value": "Male"}, "age": {"range": 5, "value": 16}, "pose": {"yaw_angle": {"value": 0.003054}, "pitch_angle": {"value": -6e-06}, "roll_angle": {"value": -11.954}}, "smiling": {"value": 54.7713}, "race": {"confidence": 99.9625, "value": "White"}}, "fbPageName": "CDLCBarcelona", "tag": "", "img_width": 720, "state": 0, "img_height": 479, "svid": "5|34278350904", "position": {"eye_left": {"y": 38.059398, "x": 52.137167}, "center": {"y": 39.724311, "x": 53.75}, "width": 5.833333, "mouth_left": {"y": 41.830075, "x": 52.877167}, "height": 8.77193, "mouth_right": {"y": 41.385213, "x": 54.999833}, "nose": {"y": 40.842607, "x": 53.8205}, "eye_right": {"y": 37.203509, "x": 54.8255}}, "face_id": "605714313aad0bdcce1ab1771b07efc8", "_id": "5643658dec4f440861252a62"}
{"url": "https://scontent.xx.fbcdn.net/hphotos-xlf1/v/t1.0-9/s720x720/12042665_10153157327310905_969169713393458146_n.jpg?oh=bb34b4a2e28f78f0a1c8e0cdadbdc711&oe=56D31B1A", "attribute": {"gender": {"confidence": 99.6919, "value": "Female"}, "age": {"range": 9, "value": 28}, "pose": {"yaw_angle": {"value": -22.450389}, "pitch_angle": {"value": -0.001081}, "roll_angle": {"value": -2.68109}}, "smiling": {"value": 99.3158}, "race": {"confidence": 92.2052, "value": "Asian"}}, "fbPageName": "CDLCBarcelona", "tag": "", "img_width": 720, "state": 0, "img_height": 479, "svid": "5|34278350904", "position": {"eye_left": {"y": 39.818045, "x": 42.454167}, "center": {"y": 41.478697, "x": 43.75}, "width": 5.166667, "mouth_left": {"y": 43.259148, "x": 42.600833}, "height": 7.769424, "mouth_right": {"y": 43.104762, "x": 45.288333}, "nose": {"y": 41.967168, "x": 43.4735}, "eye_right": {"y": 39.636341, "x": 45.0345}}, "face_id": "aa593e94538a8f8836890eae4049c5cb", "_id": "5643658dec4f440861252a63"}
{"url": "https://scontent.xx.fbcdn.net/hphotos-xlf1/v/t1.0-9/s720x720/12042665_10153157327310905_969169713393458146_n.jpg?oh=bb34b4a2e28f78f0a1c8e0cdadbdc711&oe=56D31B1A", "attribute": {"gender": {"confidence": 98.5165, "value": "Female"}, "age": {"range": 5, "value": 19}, "pose": {"yaw_angle": {"value": 29.465088}, "pitch_angle": {"value": 1.9e-05}, "roll_angle": {"value": -19.2035}}, "smiling": {"value": 97.6954}, "race": {"confidence": 99.8941, "value": "White"}}, "fbPageName": "CDLCBarcelona", "tag": "", "img_width": 720, "state": 0, "img_height": 479, "svid": "5|34278350904", "position": {"eye_left": {"y": 36.354637, "x": 36.557667}, "center": {"y": 37.218045, "x": 38.083333}, "width": 4.5, "mouth_left": {"y": 39.659398, "x": 37.373667}, "height": 6.766917, "mouth_right": {"y": 38.530576, "x": 39.272}, "nose": {"y": 37.55614, "x": 38.611833}, "eye_right": {"y": 35.176942, "x": 38.806167}}, "face_id": "d23cb54ffda33a96209b0b2ec9d7fb4e", "_id": "5643658dec4f440861252a64"}
{"url": "https://scontent.xx.fbcdn.net/hphotos-xpa1/v/t1.0-9/s720x720/12074743_10153157327395905_2480667015438060055_n.jpg?oh=b8884bd1293b91e14b0e852715a7231d&oe=568684ED", "attribute": {"gender": {"confidence": 99.8997, "value": "Male"}, "age": {"range": 9, "value": 25}, "pose": {"yaw_angle": {"value": 0.030904}, "pitch_angle": {"value": 0.0008}, "roll_angle": {"value": 15.9942}}, "smiling": {"value": 93.2283}, "race": {"confidence": 99.3326, "value": "White"}}, "fbPageName": "CDLCBarcelona", "tag": "", "img_width": 720, "state": 0, "img_height": 479, "svid": "5|34278350904", "position": {"eye_left": {"y": 30.902757, "x": 48.853667}, "center": {"y": 34.085213, "x": 50.666667}, "width": 8.666667, "mouth_left": {"y": 36.519799, "x": 47.820333}, "height": 13.032581, "mouth_right": {"y": 38.237093, "x": 51.452667}, "nose": {"y": 34.748872, "x": 50.634667}, "eye_right": {"y": 32.539098, "x": 52.65}}, "face_id": "f3681b4901cd7f77c71805aa66dc0346", "_id": "5643658fec4f440861252a65"}
{"url": "https://scontent.xx.fbcdn.net/hphotos-xpa1/v/t1.0-9/s720x720/12074743_10153157327395905_2480667015438060055_n.jpg?oh=b8884bd1293b91e14b0e852715a7231d&oe=568684ED", "attribute": {"gender": {"confidence": 99.9953, "value": "Female"}, "age": {"range": 5, "value": 16}, "pose": {"yaw_angle": {"value": -22.161909}, "pitch_angle": {"value": 2e-05}, "roll_angle": {"value": -8.38776}}, "smiling": {"value": 97.3781}, "race": {"confidence": 92.8106, "value": "White"}}, "fbPageName": "CDLCBarcelona", "tag": "", "img_width": 720, "state": 0, "img_height": 479, "svid": "5|34278350904", "position": {"eye_left": {"y": 41.482206, "x": 55.697}, "center": {"y": 43.358396, "x": 57.833333}, "width": 7.666667, "mouth_left": {"y": 46.162907, "x": 56.165167}, "height": 11.528822, "mouth_right": {"y": 45.434837, "x": 60.223167}, "nose": {"y": 44.942105, "x": 57.177167}, "eye_right": {"y": 40.656642, "x": 59.420333}}, "face_id": "f9c1909ef1e3238a55089c1791264dbc", "_id": "5643658fec4f440861252a66"}
{"url": "https://scontent.xx.fbcdn.net/hphotos-xtp1/v/t1.0-9/s720x720/12047138_10153157327430905_3637943839301461715_n.jpg?oh=cd7d7f2f43cc310fcd08b29ab491cd4b&oe=5686D3BD", "attribute": {"gender": {"confidence": 99.7885, "value": "Male"}, "age": {"range": 5, "value": 26}, "pose": {"yaw_angle": {"value": 23.803017}, "pitch_angle": {"value": -5e-06}, "roll_angle": {"value": 5.60118}}, "smiling": {"value": 83.6302}, "race": {"confidence": 97.7807, "value": "White"}}, "fbPageName": "CDLCBarcelona", "tag": "", "img_width": 720, "state": 0, "img_height": 479, "svid": "5|34278350904", "position": {"eye_left": {"y": 28.003008, "x": 45.744}, "center": {"y": 31.077694, "x": 48.0}, "width": 8.666667, "mouth_left": {"y": 34.698997, "x": 45.675667}, "height": 13.032581, "mouth_right": {"y": 35.158396, "x": 49.795}, "nose": {"y": 33.355138, "x": 48.405667}, "eye_right": {"y": 28.670927, "x": 50.273}}, "face_id": "fcf21d67da6d257aa8264acd5d059ba5", "_id": "56436590ec4f440861252a67"}
{"url": "https://scontent.xx.fbcdn.net/hphotos-xtp1/v/t1.0-9/s720x720/12047138_10153157327430905_3637943839301461715_n.jpg?oh=cd7d7f2f43cc310fcd08b29ab491cd4b&oe=5686D3BD", "attribute": {"gender": {"confidence": 99.9861, "value": "Female"}, "age": {"range": 10, "value": 37}, "pose": {"yaw_angle": {"value": -3.592061}, "pitch_angle": {"value": -0.000197}, "roll_angle": {"value": -8.66915}}, "smiling": {"value": 99.6885}, "race": {"confidence": 94.90950000000001, "value": "White"}}, "fbPageName": "CDLCBarcelona", "tag": "", "img_width": 720, "state": 0, "img_height": 479, "svid": "5|34278350904", "position": {"eye_left": {"y": 39.187218, "x": 51.604167}, "center": {"y": 41.22807, "x": 53.75}, "width": 7.166667, "mouth_left": {"y": 43.748622, "x": 52.033167}, "height": 10.776942, "mouth_right": {"y": 43.278697, "x": 56.069833}, "nose": {"y": 42.102757, "x": 53.464833}, "eye_right": {"y": 38.32807, "x": 55.351333}}, "face_id": "6be56eb6af4d13c63ba36fe17e8c37ec", "_id": "56436590ec4f440861252a68"}
{"url": "https://scontent.xx.fbcdn.net/hphotos-xpt1/v/t1.0-9/s720x720/12079719_10153157327450905_2830232308363984047_n.jpg?oh=e8a9b5294d2fbcc41d5de462303565c0&oe=568DAD63", "attribute": {"gender": {"confidence": 99.9999, "value": "Male"}, "age": {"range": 5, "value": 16}, "pose": {"yaw_angle": {"value": -0.167773}, "pitch_angle": {"value": 0.009769}, "roll_angle": {"value": -0.125506}}, "smiling": {"value": 57.6951}, "race": {"confidence": 99.7989, "value": "White"}}, "fbPageName": "CDLCBarcelona", "tag": "", "img_width": 720, "state": 0, "img_height": 479, "svid": "5|34278350904", "position": {"eye_left": {"y": 32.701253, "x": 14.065667}, "center": {"y": 35.839599, "x": 17.666667}, "width": 11.0, "mouth_left": {"y": 40.660652, "x": 15.600883}, "height": 16.541353, "mouth_right": {"y": 40.458897, "x": 20.7145}, "nose": {"y": 37.648371, "x": 17.150333}, "eye_right": {"y": 32.680952, "x": 20.228167}}, "face_id": "ab6ca75cdea6b750bc45167495fad057", "_id": "56436593ec4f440861252a69"}
{"url": "https://scontent.xx.fbcdn.net/hphotos-xpt1/v/t1.0-9/s720x720/12079719_10153157327450905_2830232308363984047_n.jpg?oh=e8a9b5294d2fbcc41d5de462303565c0&oe=568DAD63", "attribute": {"gender": {"confidence": 99.9999, "value": "Male"}, "age": {"range": 7, "value": 24}, "pose": {"yaw_angle": {"value": 14.983315}, "pitch_angle": {"value": 29.41481}, "roll_angle": {"value": -3.38016}}, "smiling": {"value": 93.3662}, "race": {"confidence": 98.0834, "value": "White"}}, "fbPageName": "CDLCBarcelona", "tag": "", "img_width": 720, "state": 0, "img_height": 479, "svid": "5|34278350904", "position": {"eye_left": {"y": 37.093233, "x": 49.858667}, "center": {"y": 39.974937, "x": 51.916667}, "width": 7.833333, "mouth_left": {"y": 41.597494, "x": 49.766}, "height": 11.779449, "mouth_right": {"y": 40.077945, "x": 52.984}, "nose": {"y": 38.838346, "x": 50.742}, "eye_right": {"y": 36.814286, "x": 52.999333}}, "face_id": "8db384c54ecff78c951d3444db9e577a", "_id": "56436593ec4f440861252a6a"}
{"url": "https://scontent.xx.fbcdn.net/hphotos-xat1/v/t1.0-9/s720x720/12088154_10153157327480905_8822635989134477247_n.jpg?oh=a9b6c6d00c54cbe16a05500482d19ca8&oe=56D18D8A", "attribute": {"gender": {"confidence": 99.9916, "value": "Male"}, "age": {"range": 6, "value": 14}, "pose": {"yaw_angle": {"value": -0.002588}, "pitch_angle": {"value": -5e-06}, "roll_angle": {"value": 0.117361}}, "smiling": {"value": 85.5093}, "race": {"confidence": 99.694, "value": "White"}}, "fbPageName": "CDLCBarcelona", "tag": "", "img_width": 720, "state": 0, "img_height": 479, "svid": "5|34278350904", "position": {"eye_left": {"y": 33.334586, "x": 43.465667}, "center": {"y": 36.466165, "x": 45.916667}, "width": 9.5, "mouth_left": {"y": 40.2, "x": 43.799833}, "height": 14.285714, "mouth_right": {"y": 40.435589, "x": 47.951}, "nose": {"y": 38.175689, "x": 45.951333}, "eye_right": {"y": 33.349123, "x": 48.184833}}, "face_id": "314fb464392e5a52a82ad367b31e6968", "_id": "56436596ec4f440861252a6b"}
{"url": "https://scontent.xx.fbcdn.net/hphotos-xat1/v/t1.0-9/s720x720/12088154_10153157327480905_8822635989134477247_n.jpg?oh=a9b6c6d00c54cbe16a05500482d19ca8&oe=56D18D8A", "attribute": {"gender": {"confidence": 99.9587, "value": "Female"}, "age": {"range": 6, "value": 16}, "pose": {"yaw_angle": {"value": -21.892624}, "pitch_angle": {"value": 2.1e-05}, "roll_angle": {"value": -1.25735}}, "smiling": {"value": 92.7886}, "race": {"confidence": 96.31920000000001, "value": "White"}}, "fbPageName": "CDLCBarcelona", "tag": "", "img_width": 720, "state": 0, "img_height": 479, "svid": "5|34278350904", "position": {"eye_left": {"y": 36.454386, "x": 53.012833}, "center": {"y": 38.972431, "x": 55.25}, "width": 9.166667, "mouth_left": {"y": 42.391228, "x": 53.654}, "height": 13.784461, "mouth_right": {"y": 42.529073, "x": 57.878833}, "nose": {"y": 41.505263, "x": 54.653833}, "eye_right": {"y": 36.304511, "x": 57.553833}}, "face_id": "2327b922ccf22c16a9b0d069f20d777e", "_id": "56436596ec4f440861252a6c"}
{"url": "https://scontent.xx.fbcdn.net/hphotos-xla1/v/t1.0-9/s720x720/12046601_10153157327540905_1332999844382778750_n.jpg?oh=f2d0c158ab6a0df3b2a46819a979618f&oe=569D66A9", "attribute": {"gender": {"confidence": 99.9951, "value": "Female"}, "age": {"range": 5, "value": 19}, "pose": {"yaw_angle": {"value": -44.369123}, "pitch_angle": {"value": 0.001026}, "roll_angle": {"value": 17.4504}}, "smiling": {"value": 19.9642}, "race": {"confidence": 79.3159, "value": "White"}}, "fbPageName": "CDLCBarcelona", "tag": "", "img_width": 720, "state": 0, "img_height": 479, "svid": "5|34278350904", "position": {"eye_left": {"y": 26.377193, "x": 60.789667}, "center": {"y": 29.072682, "x": 61.333333}, "width": 7.666667, "mouth_left": {"y": 31.278947, "x": 59.909667}, "height": 11.528822, "mouth_right": {"y": 32.408271, "x": 61.700667}, "nose": {"y": 29.4401, "x": 59.898667}, "eye_right": {"y": 27.498997, "x": 63.162833}}, "face_id": "789e2c04fa3081386da1a08c8680f257", "_id": "56436599ec4f440861252a6d"}
{"url": "https://scontent.xx.fbcdn.net/hphotos-xla1/v/t1.0-9/s720x720/12046601_10153157327540905_1332999844382778750_n.jpg?oh=f2d0c158ab6a0df3b2a46819a979618f&oe=569D66A9", "attribute": {"gender": {"confidence": 99.9995, "value": "Male"}, "age": {"range": 10, "value": 46}, "pose": {"yaw_angle": {"value": -0.17834}, "pitch_angle": {"value": 0.003632}, "roll_angle": {"value": 9.15878}}, "smiling": {"value": 74.8406}, "race": {"confidence": 91.1759, "value": "White"}}, "fbPageName": "CDLCBarcelona", "tag": "", "img_width": 720, "state": 0, "img_height": 479, "svid": "5|34278350904", "position": {"eye_left": {"y": 28.97218, "x": 43.615}, "center": {"y": 31.704261, "x": 45.25}, "width": 6.833333, "mouth_left": {"y": 33.873434, "x": 43.254333}, "height": 10.275689, "mouth_right": {"y": 34.632331, "x": 46.389833}, "nose": {"y": 31.745113, "x": 45.110667}, "eye_right": {"y": 29.764411, "x": 46.882667}}, "face_id": "60999dcf5c046627f4863a22510b3c06", "_id": "56436599ec4f440861252a6e"}
{"url": "https://scontent.xx.fbcdn.net/hphotos-xpa1/v/t1.0-9/s720x720/12079681_10153157327575905_38218543058028269_n.jpg?oh=a2c65e72f55c0f24c61ae813e20d5456&oe=569AF435", "attribute": {"gender": {"confidence": 90.6968, "value": "Female"}, "age": {"range": 9, "value": 30}, "pose": {"yaw_angle": {"value": 0.004716}, "pitch_angle": {"value": 9e-06}, "roll_angle": {"value": -3.0202}}, "smiling": {"value": 98.2866}, "race": {"confidence": 99.9407, "value": "White"}}, "fbPageName": "CDLCBarcelona", "tag": "", "img_width": 720, "state": 0, "img_height": 479, "svid": "5|34278350904", "position": {"eye_left": {"y": 34.697995, "x": 53.342333}, "center": {"y": 36.842105, "x": 55.333333}, "width": 7.666667, "mouth_left": {"y": 39.780451, "x": 53.535333}, "height": 11.528822, "mouth_right": {"y": 39.413283, "x": 57.415833}, "nose": {"y": 37.344361, "x": 55.209167}, "eye_right": {"y": 34.391479, "x": 57.205667}}, "face_id": "64ea38ef587f5355fad5c9a31e0429f8", "_id": "5643659aec4f440861252a6f"}
{"url": "https://scontent.xx.fbcdn.net/hphotos-xla1/v/l/t1.0-9/s720x720/12063541_10153157327675905_1238068322099136827_n.jpg?oh=5e788fb19b47216eb3baaa01b32d8a3f&oe=5686A5BF", "attribute": {"gender": {"confidence": 71.8729, "value": "Female"}, "age": {"range": 5, "value": 21}, "pose": {"yaw_angle": {"value": 0.001617}, "pitch_angle": {"value": -0.050623}, "roll_angle": {"value": -14.5503}}, "smiling": {"value": 12.4824}, "race": {"confidence": 99.7987, "value": "White"}}, "fbPageName": "CDLCBarcelona", "tag": "", "img_width": 720, "state": 0, "img_height": 479, "svid": "5|34278350904", "position": {"eye_left": {"y": 27.182707, "x": 44.656667}, "center": {"y": 28.571429, "x": 46.666667}, "width": 7.0, "mouth_left": {"y": 32.108521, "x": 45.9085}, "height": 10.526316, "mouth_right": {"y": 31.357143, "x": 48.239167}, "nose": {"y": 29.76416, "x": 46.817667}, "eye_right": {"y": 25.838095, "x": 48.101667}}, "face_id": "cff1c2a01000463d43ab7a770433ae75", "_id": "5643659cec4f440861252a70"}
{"url": "https://scontent.xx.fbcdn.net/hphotos-xpt1/v/t1.0-9/s720x720/12088114_10153157327705905_4264494383989825534_n.jpg?oh=4eb1ad094aafe6524b96b5ad9ea556aa&oe=56974669", "attribute": {"gender": {"confidence": 99.9941, "value": "Male"}, "age": {"range": 7, "value": 33}, "pose": {"yaw_angle": {"value": 0.000105}, "pitch_angle": {"value": -1.4e-05}, "roll_angle": {"value": 4.56895}}, "smiling": {"value": 3.28355}, "race": {"confidence": 99.4646, "value": "White"}}, "fbPageName": "CDLCBarcelona", "tag": "", "img_width": 720, "state": 0, "img_height": 479, "svid": "5|34278350904", "position": {"eye_left": {"y": 31.97594, "x": 52.314333}, "center": {"y": 35.588972, "x": 54.666667}, "width": 11.333333, "mouth_left": {"y": 40.07193, "x": 52.339}, "height": 17.042607, "mouth_right": {"y": 40.544862, "x": 56.259167}, "nose": {"y": 36.943358, "x": 54.385833}, "eye_right": {"y": 32.580952, "x": 57.349}}, "face_id": "1592dd06e45eba0f05fcc9b2cec5b76a", "_id": "5643659eec4f440861252a71"}
{"url": "https://scontent.xx.fbcdn.net/hphotos-xat1/v/t1.0-9/s720x720/12033179_10153157327795905_2194903072869714405_n.jpg?oh=38321cb4d37fc477e3d96f08c3de3939&oe=56A4A452", "attribute": {"gender": {"confidence": 57.6801, "value": "Male"}, "age": {"range": 5, "value": 17}, "pose": {"yaw_angle": {"value": -21.632068}, "pitch_angle": {"value": -19.275796}, "roll_angle": {"value": 2.03258}}, "smiling": {"value": 69.8252}, "race": {"confidence": 56.1353, "value": "White"}}, "fbPageName": "CDLCBarcelona", "tag": "", "img_width": 720, "state": 0, "img_height": 479, "svid": "5|34278350904", "position": {"eye_left": {"y": 31.852882, "x": 51.504167}, "center": {"y": 35.213033, "x": 53.916667}, "width": 11.166667, "mouth_left": {"y": 38.475689, "x": 53.327667}, "height": 16.79198, "mouth_right": {"y": 37.834336, "x": 57.406333}, "nose": {"y": 36.997995, "x": 53.701}, "eye_right": {"y": 32.111278, "x": 56.345833}}, "face_id": "07c0e26f3d6f74cd2da4f92971cfd444", "_id": "564365a0ec4f440861252a72"}
{"url": "https://scontent.xx.fbcdn.net/hphotos-xfa1/v/t1.0-9/s720x720/12039254_10153157327820905_3783474462222208210_n.jpg?oh=85cee92d82296b913f1738e8968013b8&oe=5689978F", "attribute": {"gender": {"confidence": 99.9995, "value": "Male"}, "age": {"range": 7, "value": 27}, "pose": {"yaw_angle": {"value": 21.02578}, "pitch_angle": {"value": 2.1e-05}, "roll_angle": {"value": -8.53909}}, "smiling": {"value": 86.3143}, "race": {"confidence": 97.5813, "value": "White"}}, "fbPageName": "CDLCBarcelona", "tag": "", "img_width": 720, "state": 0, "img_height": 479, "svid": "5|34278350904", "position": {"eye_left": {"y": 28.102757, "x": 59.0665}, "center": {"y": 31.203008, "x": 62.416667}, "width": 11.833333, "mouth_left": {"y": 36.804261, "x": 59.564333}, "height": 17.794486, "mouth_right": {"y": 35.668421, "x": 65.292}, "nose": {"y": 32.07619, "x": 63.412833}, "eye_right": {"y": 26.812531, "x": 64.780833}}, "face_id": "fe346168a2f4603769e95b988026ab6f", "_id": "564365a3ec4f440861252a73"}
{"url": "https://scontent.xx.fbcdn.net/hphotos-xfa1/v/t1.0-9/s720x720/12039254_10153157327820905_3783474462222208210_n.jpg?oh=85cee92d82296b913f1738e8968013b8&oe=5689978F", "attribute": {"gender": {"confidence": 99.7125, "value": "Male"}, "age": {"range": 7, "value": 35}, "pose": {"yaw_angle": {"value": -29.457911}, "pitch_angle": {"value": 2.2e-05}, "roll_angle": {"value": 14.3749}}, "smiling": {"value": 32.3243}, "race": {"confidence": 94.083, "value": "White"}}, "fbPageName": "CDLCBarcelona", "tag": "", "img_width": 720, "state": 0, "img_height": 479, "svid": "5|34278350904", "position": {"eye_left": {"y": 27.604511, "x": 40.851167}, "center": {"y": 30.952381, "x": 42.416667}, "width": 10.166667, "mouth_left": {"y": 36.375439, "x": 39.4665}, "height": 15.288221, "mouth_right": {"y": 37.936842, "x": 43.198}, "nose": {"y": 32.363409, "x": 40.428167}, "eye_right": {"y": 29.42005, "x": 45.562}}, "face_id": "d190db7c67d22274d51756329c7c2681", "_id": "564365a3ec4f440861252a74"}
{"url": "https://scontent.xx.fbcdn.net/hphotos-xfa1/v/t1.0-9/s720x720/12039254_10153157327820905_3783474462222208210_n.jpg?oh=85cee92d82296b913f1738e8968013b8&oe=5689978F", "attribute": {"gender": {"confidence": 91.8651, "value": "Female"}, "age": {"range": 7, "value": 11}, "pose": {"yaw_angle": {"value": 5.128866}, "pitch_angle": {"value": 0.01635}, "roll_angle": {"value": 22.2248}}, "smiling": {"value": 16.9036}, "race": {"confidence": 99.4791, "value": "White"}}, "fbPageName": "CDLCBarcelona", "tag": "", "img_width": 720, "state": 0, "img_height": 479, "svid": "5|34278350904", "position": {"eye_left": {"y": 51.705514, "x": 57.749667}, "center": {"y": 54.260652, "x": 58.583333}, "width": 5.166667, "mouth_left": {"y": 55.476692, "x": 57.048833}, "height": 7.769424, "mouth_right": {"y": 54.803509, "x": 58.603333}, "nose": {"y": 54.266667, "x": 58.609}, "eye_right": {"y": 53.456642, "x": 60.599667}}, "face_id": "e8487b54ddcab35b343756db176bfaca", "_id": "564365a3ec4f440861252a75"}
{"url": "https://scontent.xx.fbcdn.net/hphotos-xal1/v/t1.0-9/s720x720/12074856_10153157327870905_4064798239405081460_n.jpg?oh=d740901296a77fee72e4fcd03076731a&oe=568B8E31", "attribute": {"gender": {"confidence": 99.9994, "value": "Male"}, "age": {"range": 5, "value": 30}, "pose": {"yaw_angle": {"value": -8.331754}, "pitch_angle": {"value": 0.014662}, "roll_angle": {"value": -15.5182}}, "smiling": {"value": 95.3183}, "race": {"confidence": 86.29860000000001, "value": "White"}}, "fbPageName": "CDLCBarcelona", "tag": "", "img_width": 720, "state": 0, "img_height": 479, "svid": "5|34278350904", "position": {"eye_left": {"y": 39.826065, "x": 66.113667}, "center": {"y": 41.478697, "x": 68.583333}, "width": 8.5, "mouth_left": {"y": 45.518296, "x": 67.042667}, "height": 12.781955, "mouth_right": {"y": 43.63609, "x": 71.183}, "nose": {"y": 41.915038, "x": 67.818167}, "eye_right": {"y": 38.115038, "x": 70.2115}}, "face_id": "b98253554adb2ccd8afcfdf074cee725", "_id": "564365a6ec4f440861252a76"}
{"url": "https://scontent.xx.fbcdn.net/hphotos-xal1/v/t1.0-9/s720x720/12074856_10153157327870905_4064798239405081460_n.jpg?oh=d740901296a77fee72e4fcd03076731a&oe=568B8E31", "attribute": {"gender": {"confidence": 99.9311, "value": "Male"}, "age": {"range": 7, "value": 34}, "pose": {"yaw_angle": {"value": 39.248572}, "pitch_angle": {"value": -0.000658}, "roll_angle": {"value": -23.3393}}, "smiling": {"value": 4.90597}, "race": {"confidence": 96.5544, "value": "White"}}, "fbPageName": "CDLCBarcelona", "tag": "", "img_width": 720, "state": 0, "img_height": 479, "svid": "5|34278350904", "position": {"eye_left": {"y": 36.388972, "x": 35.396}, "center": {"y": 37.969925, "x": 37.25}, "width": 7.833333, "mouth_left": {"y": 41.811529, "x": 36.4225}, "height": 11.779449, "mouth_right": {"y": 40.576692, "x": 39.277667}, "nose": {"y": 38.150376, "x": 38.561333}, "eye_right": {"y": 34.684461, "x": 38.023}}, "face_id": "0cdde5b1d8d2e0cd8639cfe1d0930f6b", "_id": "564365a6ec4f440861252a77"}
{"url": "https://scontent.xx.fbcdn.net/hphotos-xap1/v/t1.0-9/s720x720/12074877_10153157327910905_5793781995007531620_n.jpg?oh=abdf75341695656f4517bacc9f8b8cd3&oe=568A01C2", "attribute": {"gender": {"confidence": 99.9988, "value": "Female"}, "age": {"range": 5, "value": 27}, "pose": {"yaw_angle": {"value": 22.548855}, "pitch_angle": {"value": 1.3e-05}, "roll_angle": {"value": 0.00238}}, "smiling": {"value": 95.7731}, "race": {"confidence": 93.7989, "value": "White"}}, "fbPageName": "CDLCBarcelona", "tag": "", "img_width": 720, "state": 0, "img_height": 479, "svid": "5|34278350904", "position": {"eye_left": {"y": 35.217794, "x": 39.701833}, "center": {"y": 37.844612, "x": 41.666667}, "width": 8.0, "mouth_left": {"y": 40.941604, "x": 39.818333}, "height": 12.030075, "mouth_right": {"y": 40.570426, "x": 43.469167}, "nose": {"y": 38.974687, "x": 42.5065}, "eye_right": {"y": 35.218045, "x": 43.743}}, "face_id": "c68332c694e34e2b19288b5e374bb297", "_id": "564365a8ec4f440861252a78"}
{"url": "https://scontent.xx.fbcdn.net/hphotos-xap1/v/t1.0-9/s720x720/12074877_10153157327910905_5793781995007531620_n.jpg?oh=abdf75341695656f4517bacc9f8b8cd3&oe=568A01C2", "attribute": {"gender": {"confidence": 99.9999, "value": "Female"}, "age": {"range": 6, "value": 17}, "pose": {"yaw_angle": {"value": -22.509697}, "pitch_angle": {"value": -0.001784}, "roll_angle": {"value": 18.9321}}, "smiling": {"value": 46.6844}, "race": {"confidence": 76.667, "value": "Asian"}}, "fbPageName": "CDLCBarcelona", "tag": "", "img_width": 720, "state": 0, "img_height": 479, "svid": "5|34278350904", "position": {"eye_left": {"y": 30.903509, "x": 56.9305}, "center": {"y": 33.709273, "x": 57.916667}, "width": 7.166667, "mouth_left": {"y": 35.342356, "x": 55.959667}, "height": 10.776942, "mouth_right": {"y": 36.698747, "x": 58.413667}, "nose": {"y": 33.534336, "x": 57.048167}, "eye_right": {"y": 32.57218, "x": 60.165667}}, "face_id": "c033bda3dc65c0634070373507821089", "_id": "564365a8ec4f440861252a79"}
{"url": "https://scontent.xx.fbcdn.net/hphotos-xap1/v/t1.0-9/s720x720/12074877_10153157327910905_5793781995007531620_n.jpg?oh=abdf75341695656f4517bacc9f8b8cd3&oe=568A01C2", "attribute": {"gender": {"confidence": 99.9952, "value": "Male"}, "age": {"range": 5, "value": 7}, "pose": {"yaw_angle": {"value": -0.138233}, "pitch_angle": {"value": -0.111574}, "roll_angle": {"value": 10.3885}}, "smiling": {"value": 9.84251}, "race": {"confidence": 97.4492, "value": "White"}}, "fbPageName": "CDLCBarcelona", "tag": "", "img_width": 720, "state": 0, "img_height": 479, "svid": "5|34278350904", "position": {"eye_left": {"y": 33.532832, "x": 21.301167}, "center": {"y": 35.087719, "x": 22.166667}, "width": 4.0, "mouth_left": {"y": 35.997494, "x": 21.111}, "height": 6.015038, "mouth_right": {"y": 36.118797, "x": 22.447667}, "nose": {"y": 34.810777, "x": 22.214333}, "eye_right": {"y": 34.044862, "x": 23.1585}}, "face_id": "6dce6c7c72b676ebc34de2b925289c6e", "_id": "564365a8ec4f440861252a7a"}
{"url": "https://scontent.xx.fbcdn.net/hphotos-xap1/v/t1.0-9/s720x720/12043097_10153157327940905_1682427049382522511_n.jpg?oh=94c1fa5282d65705617b6068cd330926&oe=569EE590", "attribute": {"gender": {"confidence": 99.2676, "value": "Male"}, "age": {"range": 9, "value": 31}, "pose": {"yaw_angle": {"value": 1.271573}, "pitch_angle": {"value": 0.000143}, "roll_angle": {"value": 11.6194}}, "smiling": {"value": 98.5809}, "race": {"confidence": 69.8287, "value": "White"}}, "fbPageName": "CDLCBarcelona", "tag": "", "img_width": 720, "state": 0, "img_height": 479, "svid": "5|34278350904", "position": {"eye_left": {"y": 14.89609, "x": 49.287167}, "center": {"y": 18.045113, "x": 51.0}, "width": 9.0, "mouth_left": {"y": 20.16599, "x": 48.197167}, "height": 13.533835, "mouth_right": {"y": 21.579223, "x": 52.655833}, "nose": {"y": 19.635439, "x": 51.352833}, "eye_right": {"y": 16.178271, "x": 53.433833}}, "face_id": "db47690f9153daf83069ff47d2fe8268", "_id": "564365a9ec4f440861252a7b"}
